city Name,Temperature (F),Humidity (%),Cloudiness (%),Wind Speed (mph),Lng,Latitude,Date
Punta Arenas,50,87,20,8.05,-70.92,-53.15,3/4/2020
Busselton,88.79,10,59,9.08,115.33,-33.65,3/4/2020
Taoudenni,67.6,13,0,6.51,-3.98,22.68,3/4/2020
Roald,36.18,56,100,11.41,6.13,62.58,3/4/2020
Jaru,71.49,99,99,2.15,-62.47,-10.44,3/4/2020
Castro,51.57,98,22,2.17,-50.01,-24.79,3/4/2020
College,-11.36,75,1,2.17,-147.8,64.86,3/4/2020
Bambous Virieux,84.11,79,40,1.12,57.76,-20.34,3/4/2020
Vila Velha,78.8,94,75,6.93,-40.29,-20.33,3/4/2020
Hilo,69.64,83,90,5.82,-155.09,19.73,3/4/2020
Ryazanovskiy,36.23,95,97,1.23,39.43,55.55,3/4/2020
Meridian,41.5,63,1,5.82,-116.39,43.61,3/4/2020
Vestmannaeyjar,37.87,50,100,16.11,-20.27,63.44,3/4/2020
Huanren,25.9,78,90,13.02,125.37,41.26,3/4/2020
Mahon,51.8,66,20,18.34,4.27,39.89,3/4/2020
Atuona,81.52,76,4,12.15,-139.03,-9.8,3/4/2020
Chokurdakh,-0.72,79,0,8.25,147.92,70.63,3/4/2020
Ushuaia,53.6,58,40,25.28,-68.3,-54.8,3/4/2020
Mataura,57,50,1,10,168.86,-46.19,3/4/2020
Qaanaaq,-13.9,98,100,1.57,-69.36,77.48,3/4/2020
Airai,76.41,85,87,3.4,125.41,-8.93,3/4/2020
Mongo,76.91,20,18,3.69,18.69,12.18,3/4/2020
Touros,78.8,88,90,4.7,-35.46,-5.2,3/4/2020
Arraial do Cabo,74.97,87,70,8.63,-42.03,-22.97,3/4/2020
Saint Paul Harbor,14,72,90,16.11,-152.41,57.79,3/4/2020
Mahébourg,84.13,79,40,1.12,57.7,-20.41,3/4/2020
Rikitea,78.58,79,100,18.34,-134.97,-23.12,3/4/2020
Matagami,21.2,92,75,2.24,-77.63,49.75,3/4/2020
Kapaa,73.49,88,40,8.05,-159.32,22.08,3/4/2020
Butaritari,82.78,79,55,14.99,172.79,3.07,3/4/2020
Cape Town,64.17,88,20,13.87,18.42,-33.93,3/4/2020
Bluff,57,50,34,10,168.33,-46.6,3/4/2020
Dingle,85.26,58,62,12.95,122.67,11,3/4/2020
Puerto Ayora,78.01,100,82,1.01,-90.35,-0.74,3/4/2020
Sterling,49.41,66,90,18.34,-77.43,39.01,3/4/2020
Tasiilaq,30.2,63,100,3.36,-37.64,65.61,3/4/2020
Alugan,81.1,77,5,13.15,125.48,12.22,3/4/2020
Santa María del Oro,44.46,46,0,13.33,-105.37,25.93,3/4/2020
Hwange,67.55,73,81,8.63,26.5,-18.37,3/4/2020
Avarua,82.4,83,4,3.36,-159.78,-21.21,3/4/2020
Faanui,82.74,78,66,9.57,-151.75,-16.48,3/4/2020
Albany,41.47,75,90,12.75,-73.97,42.6,3/4/2020
Cidreira,72.54,74,90,8.5,-50.21,-30.18,3/4/2020
New Norfolk,69.01,49,40,13.87,147.06,-42.78,3/4/2020
Pacific Grove,52.43,71,1,5.66,-121.92,36.62,3/4/2020
Hermanus,64.81,90,7,1.01,19.23,-34.42,3/4/2020
Chui,65.93,92,0,6.13,-53.46,-33.7,3/4/2020
Provideniya,8.6,65,48,3.87,-173.3,64.38,3/4/2020
Vaini,84.2,70,40,8.05,-175.2,-21.2,3/4/2020
Flinders,71.74,94,75,11.41,150.86,-34.58,3/4/2020
São Filipe,72.21,72,1,16.87,-24.5,14.9,3/4/2020
Tiksi,4.24,79,100,31.27,128.87,71.69,3/4/2020
Barrow,-23.8,74,1,9.17,-156.79,71.29,3/4/2020
George Town,91.11,59,20,6.93,100.34,5.41,3/4/2020
Lingdong,22.78,88,100,7.16,131.15,46.57,3/4/2020
Gīdolē,78.67,46,91,5.12,37.37,5.65,3/4/2020
Saint George,45.66,40,1,1.23,-113.58,37.1,3/4/2020
Songjianghe,22.37,89,100,13.73,127.48,42.19,3/4/2020
Saskylakh,5.5,92,100,4.79,114.08,71.92,3/4/2020
Neuquén,84.2,32,0,8.43,-68.06,-38.95,3/4/2020
Seoul,39.56,48,75,6.93,126.98,37.57,3/4/2020
Aklavik,-34.6,73,40,2.24,-135.01,68.22,3/4/2020
Belaya Gora,2.14,75,0,4.79,146.42,68.53,3/4/2020
Palmas Bellas,78.04,78,65,8.05,-80.09,9.23,3/4/2020
Vestmanna,37.4,74,26,12.75,-7.17,62.16,3/4/2020
Ponta Delgada,64.4,93,75,19.46,-25.67,37.73,3/4/2020
Coyhaique,57.2,76,100,4.7,-72.07,-45.58,3/4/2020
Lagoa,60.35,70,98,30.38,-27.98,39.05,3/4/2020
Port Alfred,71.01,94,0,7.81,26.89,-33.59,3/4/2020
Marsh Harbour,73.26,86,88,13.35,-77.06,26.54,3/4/2020
Upernavik,-15.74,49,100,2.17,-56.15,72.79,3/4/2020
Khatanga,8.58,94,100,6.31,102.5,71.97,3/4/2020
Fortuna,47.97,87,90,4.12,-124.16,40.6,3/4/2020
Dzhebariki-Khaya,4.23,88,93,1.45,135.8,62.22,3/4/2020
Ponta do Sol,58.77,77,75,8.05,-17.1,32.67,3/4/2020
Ürümqi,39.31,60,75,2.24,87.6,43.8,3/4/2020
Nikolskoye,35.37,93,90,13.42,30.79,59.7,3/4/2020
Nioro,72,12,0,3.89,-15.75,13.35,3/4/2020
Bandarbeyla,77.43,63,100,7.47,50.81,9.49,3/4/2020
Ceres,54.28,66,1,3.36,-120.96,37.59,3/4/2020
Clifton,48.42,71,1,16.11,-74.16,40.86,3/4/2020
Igarka,16.68,93,100,18.63,86.58,67.47,3/4/2020
Diego de Almagro,56.79,52,0,1.59,-70.05,-26.37,3/4/2020
Ust'-Kut,21.13,86,100,5.37,105.77,56.79,3/4/2020
Mar del Plata,66.69,93,0,9.89,-57.56,-38,3/4/2020
Uribia,74.73,78,60,9.46,-72.27,11.71,3/4/2020
Richards Bay,75.24,74,0,17.16,32.04,-28.78,3/4/2020
Kalmar,38.23,93,90,9.17,16.36,56.66,3/4/2020
Boueni,86,66,20,12.75,45.08,-12.9,3/4/2020
Hithadhoo,83.26,75,40,12.73,73.08,-0.6,3/4/2020
Sarakhs,42.8,100,90,16.11,61.16,36.54,3/4/2020
São João da Barra,72.81,92,82,5.57,-41.05,-21.64,3/4/2020
Bethel,48.07,66,90,17.22,-73.41,41.37,3/4/2020
Lompoc,51.71,93,90,3.36,-120.46,34.64,3/4/2020
Tuktoyaktuk,-45.4,64,20,4.7,-133.04,69.45,3/4/2020
Hobart,68.97,49,40,13.87,147.33,-42.88,3/4/2020
Monduli,64.4,100,75,7.16,36.45,-3.3,3/4/2020
Harper,77.54,93,38,3.56,-7.72,4.38,3/4/2020
Sundsvall,30.74,92,90,8.05,17.31,62.39,3/4/2020
Hay River,-7.6,83,75,3.36,-115.8,60.82,3/4/2020
Souris,8.6,84,40,5.82,-100.26,49.62,3/4/2020
Sørland,34.57,65,65,19.66,12.69,67.67,3/4/2020
‘Āhuimanu,74.77,83,75,8.05,-157.84,21.44,3/4/2020
Kaitangata,52.9,65,2,17.29,169.85,-46.28,3/4/2020
Río Gallegos,53.6,87,69,33.33,-69.22,-51.62,3/4/2020
Hearst,26.46,98,100,3.56,-83.67,49.68,3/4/2020
Thompson,14,78,90,2.26,-97.86,55.74,3/4/2020
Hong Kong,71.28,73,40,6.93,114.16,22.29,3/4/2020
Cabo San Lucas,60.15,67,5,8.72,-109.91,22.89,3/4/2020
Olinda,84.2,74,40,5.82,-34.86,-8.01,3/4/2020
Dubbo,80.6,61,100,17.22,148.62,-32.25,3/4/2020
Whyalla,77,33,24,13.87,137.58,-33.03,3/4/2020
Danville,51.55,71,1,10.29,-79.39,36.59,3/4/2020
Vila Franca do Campo,64.4,93,75,19.46,-25.43,37.72,3/4/2020
Nemuro,30.2,80,75,8.05,145.57,43.32,3/4/2020
Constitución,55.27,72,1,3.24,-72.42,-35.33,3/4/2020
Vardø,19.4,73,3,10.29,31.11,70.37,3/4/2020
Bredasdorp,60.17,93,0,3.36,20.04,-34.53,3/4/2020
Muaná,75.2,93,90,4.27,-49.22,-1.53,3/4/2020
Puerto Ayacucho,73.76,75,0,3.02,-67.62,5.66,3/4/2020
Torbay,35.1,100,90,18.34,-52.73,47.67,3/4/2020
Marquette,30.47,74,90,6.93,-87.63,46.53,3/4/2020
Ola,16.77,94,87,3.69,151.28,59.58,3/4/2020
La Palma,59.16,55,1,3.22,-118.05,33.85,3/4/2020
Te Anau,53.29,53,0,7.25,167.72,-45.42,3/4/2020
Port-Cartier,21.54,92,75,5.82,-66.87,50.03,3/4/2020
Tautira,82.22,78,20,5.82,-149.15,-17.73,3/4/2020
Mount Gambier,71.6,56,76,11.41,140.77,-37.83,3/4/2020
Port Hedland,96.8,19,0,13.87,118.57,-20.32,3/4/2020
Lubao,85.8,62,75,18.34,120.55,14.92,3/4/2020
Shenjiamen,48.87,75,100,20.83,122.3,29.96,3/4/2020
Kumul,51.01,21,27,3.6,93.45,42.8,3/4/2020
Ilebo,72.07,85,90,0.85,20.58,-4.32,3/4/2020
Severo-Kuril'sk,25.14,86,99,11.3,156.12,50.68,3/4/2020
Kayasula,50.65,52,66,3.94,45,44.33,3/4/2020
Salinas,52.83,71,1,1.32,-121.66,36.68,3/4/2020
Bhuj,79.03,46,0,8.32,69.67,23.27,3/4/2020
Saucillo,46.76,45,23,15.21,-105.28,28.02,3/4/2020
Graciano Sánchez,67.1,29,100,6.62,-99.28,23.92,3/4/2020
Gizo Government Station,84.07,73,61,6.42,156.84,-8.1,3/4/2020
Paciran,86.72,76,80,7.2,112.38,-6.88,3/4/2020
Dillon,60.39,100,1,4.7,-79.37,34.42,3/4/2020
Narsaq,1.4,45,0,4.7,-46.05,60.92,3/4/2020
Yilan,61.86,77,75,11.41,121.75,24.76,3/4/2020
Mahibadhoo,82.78,73,57,12.39,72.97,3.78,3/4/2020
East London,69.8,88,0,8.05,27.91,-33.02,3/4/2020
Norman Wells,-16.6,68,75,3.36,-126.83,65.28,3/4/2020
Ojinaga,48.33,81,90,10.29,-104.42,29.57,3/4/2020
Kahului,71.4,73,40,9.17,-156.47,20.89,3/4/2020
Jamestown,37.02,69,90,17.22,-79.24,42.1,3/4/2020
Ninghai,50,71,40,6.71,121.42,29.29,3/4/2020
Malanje,65.84,95,97,1.77,16.34,-9.54,3/4/2020
Vanimo,85.37,74,100,14.38,141.3,-2.67,3/4/2020
Aban,21.47,86,100,2.95,96.06,56.67,3/4/2020
Port Lincoln,66.58,65,24,12.48,135.87,-34.73,3/4/2020
Ust-Maya,6.21,90,100,4.61,134.53,60.42,3/4/2020
Mahajanga,86,74,20,5.82,46.32,-15.72,3/4/2020
Lüderitz,66.2,88,0,2.84,15.16,-26.65,3/4/2020
Jutaí,74.14,96,96,1.63,-68.9,-5.18,3/4/2020
Tura,88.16,26,13,5.08,90.22,25.52,3/4/2020
Ekibastuz,23.47,91,85,15.28,75.37,51.67,3/4/2020
San Miguel de Tucumán,73.4,78,0,3.36,-65.22,-26.82,3/4/2020
Lebu,51.76,92,0,5.08,-73.65,-37.62,3/4/2020
Petropavlovsk-Kamchatskiy,30.2,54,90,4.47,158.65,53.05,3/4/2020
Lata,56.08,92,97,1.01,-8.33,40.16,3/4/2020
Samarai,84.76,83,74,2.44,150.67,-10.62,3/4/2020
Port Hardy,39.2,86,75,5.82,-127.42,50.7,3/4/2020
Rumoi,33.67,76,91,9.06,141.64,43.93,3/4/2020
Concepción de Buenos Aires,60.8,55,20,5.82,-103.27,19.97,3/4/2020
San Patricio,73.62,78,5,7.7,-104.7,19.22,3/4/2020
Visby,41.31,93,90,9.17,18.3,57.64,3/4/2020
Walvis Bay,68.4,77,90,4.7,14.51,-22.96,3/4/2020
Cherskiy,4.64,80,0,13.09,161.3,68.75,3/4/2020
Mmabatho,60.8,87,0,6.93,25.63,-25.85,3/4/2020
Adrar,68.95,9,0,9.82,-10.07,20.5,3/4/2020
Corn Island,80.02,74,94,16.42,-83.04,12.17,3/4/2020
Ambon City,91.4,55,40,8.05,128.18,-3.7,3/4/2020
Kirovsk,45.14,78,91,13.27,38.64,48.64,3/4/2020
Hamilton,42.22,60,1,4.59,-84.53,39.18,3/4/2020
Ribeira Grande,56.25,75,96,25.34,-28.7,38.52,3/4/2020
Saint-Philippe,82.04,88,75,10.29,55.77,-21.36,3/4/2020
Yellowknife,-1.84,77,90,3.36,-114.35,62.46,3/4/2020
Nador,56.44,67,0,19.46,-2.93,35.17,3/4/2020
Cap Malheureux,84.09,79,40,1.12,57.61,-19.98,3/4/2020
Port Pirie,77,33,57,13.87,138.02,-33.18,3/4/2020
Gijón,57.34,67,75,11.41,-5.66,43.54,3/4/2020
Chicama,71.6,88,75,9.17,-79.15,-7.84,3/4/2020
Alice Springs,73.4,78,90,14.99,133.88,-23.7,3/4/2020
Yermish',35.28,99,100,2.06,42.27,54.77,3/4/2020
Sitka,34.84,64,75,12.75,-135.33,57.05,3/4/2020
Papayal,72.46,91,100,1.81,-80.74,-4.08,3/4/2020
Longyearbyen,5,84,90,10.29,15.64,78.22,3/4/2020
Meulaboh,84.09,74,59,5.1,96.13,4.14,3/4/2020
Rawson,64.47,86,54,14.25,-65.1,-43.3,3/4/2020
Tocopilla,57.76,39,0,2.35,-70.2,-22.09,3/4/2020
Mocuba,76.06,80,31,5.26,36.99,-16.84,3/4/2020
Abu Kamal,58.42,56,0,0.69,40.92,34.45,3/4/2020
Magadan,15.28,93,99,6.31,150.8,59.57,3/4/2020
Basco,76.6,80,70,12.82,121.97,20.45,3/4/2020
Kingaroy,83.1,45,40,11.41,151.83,-26.53,3/4/2020
Koslan,15.91,91,45,6.96,48.9,63.46,3/4/2020
Carutapera,81.1,80,100,15.77,-46.02,-1.2,3/4/2020
Yangi Marg`ilon,50,76,75,2.24,71.72,40.43,3/4/2020
Russell,59.61,93,90,1.39,-85.2,32.35,3/4/2020
Yumen,48.54,17,0,5.48,97.2,40.28,3/4/2020
Oranjemund,69.94,67,0,2.51,16.43,-28.55,3/4/2020
Sangar,2.57,84,99,14.99,127.47,63.92,3/4/2020
Bata,75.6,96,100,2.51,9.77,1.86,3/4/2020
Xiaoweizhai,49.55,74,88,7.7,107.51,26.19,3/4/2020
Pativilca,72.41,89,100,8.46,-77.78,-10.7,3/4/2020
Wanaka,48.15,50,0,4.99,169.15,-44.7,3/4/2020
Kiryat Gat,54.64,87,14,5.82,34.76,31.61,3/4/2020
Port Elizabeth,68,94,0,8.05,25.57,-33.92,3/4/2020
Praia,73.4,56,0,16.11,-23.51,14.92,3/4/2020
Ilulissat,-16.6,46,0,2.24,-51.1,69.22,3/4/2020
Chapada dos Guimarães,75.2,78,0,2.24,-55.75,-15.46,3/4/2020
Kavieng,83.17,76,100,21.03,150.8,-2.57,3/4/2020
Katangli,20.3,92,98,5.5,143.23,51.71,3/4/2020
Souillac,84.13,79,40,1.12,57.52,-20.52,3/4/2020
Abirāmam,89.6,49,20,4.7,78.45,9.47,3/4/2020
Esperance,77,38,65,6.93,121.9,-33.87,3/4/2020
Hammond,36.18,80,1,6.62,-87.5,41.58,3/4/2020
Juneau,33.62,74,75,8.05,-134.42,58.3,3/4/2020
Ust'-Ishim,32.22,94,100,10.85,71.17,57.69,3/4/2020
Nālūt,51.8,30,65,14.99,10.85,30.33,3/4/2020
Bathsheba,78.8,69,40,18.34,-59.52,13.22,3/4/2020
Malibu,57.43,82,1,4.74,-118.81,34.01,3/4/2020
Ahipara,73,96,100,22.95,173.17,-35.17,3/4/2020
Leshukonskoye,14.61,94,25,5.88,45.76,64.9,3/4/2020
Carnarvon,89.6,55,0,11.41,113.63,-24.87,3/4/2020
Blythe,61.59,22,1,3.36,-114.6,33.61,3/4/2020
Alvorada,72.1,95,89,2.13,-49.12,-12.48,3/4/2020
Bukama,70.88,96,96,0.58,25.85,-9.2,3/4/2020
Honningsvåg,27.54,58,1,21.92,25.97,70.98,3/4/2020
Stephenville Crossing,32,97,90,5.82,-58.43,48.5,3/4/2020
Isangel,86,70,75,6.93,169.27,-19.55,3/4/2020
Dikson,-9.29,98,79,11.86,80.55,73.51,3/4/2020
Dunedin,55.99,60,0,8.99,170.5,-45.87,3/4/2020
Camacupa,62.69,83,90,2.75,17.48,-12.02,3/4/2020
Valparaíso,58.23,93,90,3.87,-71.63,-33.04,3/4/2020
Weinan,53.6,37,0,6.71,109.51,34.5,3/4/2020
Puerto Escondido,68.38,74,0,3.76,-97.07,15.85,3/4/2020
Palmerston,90.79,66,75,8.05,130.98,-12.49,3/4/2020
Kidal,68.34,8,0,9.8,1.41,18.44,3/4/2020
Lock Haven,39.97,86,90,9.17,-77.45,41.14,3/4/2020
Bougouni,69.71,15,54,5.28,-7.48,11.42,3/4/2020
Oyama,48.4,93,75,11.41,139.8,36.3,3/4/2020
Ţahţā,52.68,37,0,4.7,31.5,26.77,3/4/2020
Pevek,0.37,77,50,8.63,170.31,69.7,3/4/2020
Ancud,50,100,94,3.36,-73.82,-41.87,3/4/2020
Kyaukse,86,40,20,5.82,96.13,21.6,3/4/2020
Mossamedes,73.92,78,0,14.09,12.15,-15.2,3/4/2020
Nago,69.4,64,90,13.87,127.98,26.59,3/4/2020
Tabu,81.41,73,0,17.07,122.71,9.89,3/4/2020
Labuhan,87.26,72,43,6.53,112.21,-6.88,3/4/2020
Salima,69.8,87,100,9.73,34.46,-13.78,3/4/2020
Zyryanovsk,19.2,88,54,2.91,84.27,49.74,3/4/2020
Hasaki,48.81,100,75,1.12,140.83,35.73,3/4/2020
Saldanha,62.6,88,41,8.05,17.94,-33.01,3/4/2020
Kirakira,82.83,81,100,4.85,161.92,-10.45,3/4/2020
Waddān,56.14,58,61,5.21,16.14,29.16,3/4/2020
Maceió,77,94,40,3.36,-35.74,-9.67,3/4/2020
Beira,71.6,94,75,8.05,34.84,-19.84,3/4/2020
Sagua la Grande,69.8,94,20,5.82,-80.08,22.81,3/4/2020
Buala,85.89,72,100,1.43,159.59,-8.14,3/4/2020
Magán,52.29,87,40,11.41,-3.93,39.97,3/4/2020
Nome,10.22,72,90,18.34,-165.41,64.5,3/4/2020
Moerai,81.1,81,100,6.22,-151.33,-22.43,3/4/2020
Palmer,47.77,100,90,8.05,-72.33,42.16,3/4/2020
Aswān,69.28,24,0,6.08,32.91,24.09,3/4/2020
Strichen,30.11,80,0,4.7,-2.09,57.59,3/4/2020
Simao,73.74,29,0,7.92,100.97,22.79,3/4/2020
Burpengary,83.28,62,75,12.75,152.96,-27.16,3/4/2020
Bubaque,79.99,65,0,9.55,-15.83,11.28,3/4/2020
Yar-Sale,14.18,93,88,13.67,70.83,66.83,3/4/2020
Atar,66.79,9,0,7.07,-13.05,20.52,3/4/2020
Vaitape,82.74,78,66,9.57,-151.75,-16.52,3/4/2020
Gemeente Zwolle,38.91,100,90,6.93,6.09,52.51,3/4/2020
Bairiki Village,86,70,40,8.05,172.98,1.33,3/4/2020
Mirny,15.8,61,100,2.24,113.96,62.54,3/4/2020
Half Moon Bay,55.33,76,20,10.29,-122.43,37.46,3/4/2020
Trat,85.32,66,20,9.17,102.5,12.5,3/4/2020
Homer,9.99,61,90,4.7,-151.55,59.64,3/4/2020
Thinadhoo,83.16,74,37,13.89,72.93,0.53,3/4/2020
Cabra,55.04,93,90,5.82,-4.44,37.47,3/4/2020
Loughrea,39.2,80,97,4.7,-8.57,53.2,3/4/2020
Alta Floresta,71.04,98,98,2.86,-56.09,-9.88,3/4/2020
Deputatsky,1.18,65,0,3.38,139.9,69.3,3/4/2020
Pushkar,81.59,19,6,7.47,74.55,26.5,3/4/2020
Rio Grande,64,91,0,10.65,-52.1,-32.03,3/4/2020
Progreso,80.78,61,5,13.87,-89.67,21.28,3/4/2020
Cayenne,78.8,78,21,5.82,-52.33,4.93,3/4/2020
Wattegama,84.2,79,75,2.24,81.48,6.8,3/4/2020
Vao,79.9,81,64,13.71,167.48,-22.67,3/4/2020
Aquin,74.59,79,22,5.75,-73.4,18.28,3/4/2020
Newport,38.26,80,100,4.7,-3,51.59,3/4/2020
Codrington,61.7,85,23,17.05,141.97,-38.27,3/4/2020
Jalu,59.56,75,50,15.99,21.55,29.03,3/4/2020
Ayan,8.53,92,100,3.47,138.17,56.45,3/4/2020
Tiznit Province,62.69,38,0,3.56,-9.5,29.58,3/4/2020
Nikolayevsk-on-Amur,18.9,83,93,3.29,140.73,53.14,3/4/2020
Grøa,41,48,100,18.34,8.72,62.65,3/4/2020
Attendorn,36.75,86,90,8.05,7.9,51.13,3/4/2020
Jilotepec,64.17,44,0,7.72,-96.93,19.6,3/4/2020
Husavik,23,67,100,23.04,-17.34,66.04,3/4/2020
San Quintín,57.69,76,0,1.5,-115.95,30.48,3/4/2020
Dickinson,69.13,83,90,5.82,-95.05,29.46,3/4/2020
Kuril'sk,29.7,80,88,5.91,147.88,45.23,3/4/2020
Bud,37.47,64,1,3.36,-86.18,39.45,3/4/2020
Kankaanpää,32.52,86,90,12.75,22.42,61.8,3/4/2020
Dukat,0.19,88,18,7.92,155.55,62.55,3/4/2020
Laguna,56.75,58,1,5.82,-121.42,38.42,3/4/2020
Tromsø,25.11,53,7,27.51,18.96,69.65,3/4/2020
Lábrea,71.92,99,97,1.77,-64.8,-7.26,3/4/2020
Forsytheganj,42.19,91,95,8.32,29.73,52.63,3/4/2020
Ostrovnoy,13.71,96,99,9.69,39.51,68.05,3/4/2020
Crotone,46.71,64,94,3.18,17.12,39.09,3/4/2020
Tabuk,85.77,54,2,6.31,121.44,17.42,3/4/2020
Mercedes,71.98,87,0,6.51,-59.43,-34.65,3/4/2020
Province of Mantua,42.03,87,75,2.24,10.78,45.17,3/4/2020
Kapoeta,90.01,34,37,12.03,33.59,4.77,3/4/2020
Guarapari,78.8,94,75,6.93,-40.5,-20.67,3/4/2020
Berlevåg,26.6,68,8,20.8,29.09,70.86,3/4/2020
Coquimbo,60.8,87,90,2.24,-71.34,-29.95,3/4/2020
Samrāla,76.23,44,2,3.62,76.19,30.84,3/4/2020
Mandera,80.87,51,34,5.79,41.87,3.94,3/4/2020
Bodden Town,78.37,80,0,3,-81.25,19.28,3/4/2020
Teacapan,67.57,82,100,1.99,-105.75,22.55,3/4/2020
Saint-Pierre-des-Corps,37.63,100,90,5.82,0.73,47.38,3/4/2020
Pierre,35.55,80,1,11.41,-100.35,44.37,3/4/2020
Copiapó,60.8,82,0,6.93,-70.33,-27.37,3/4/2020
Plyussa,34.68,95,100,8.84,29.37,58.43,3/4/2020
Eureka,47.73,87,75,3.29,-124.16,40.8,3/4/2020
Kloulklubed,80.6,88,90,14.99,134.26,7.04,3/4/2020
Piaçabuçu,80.42,80,87,6.89,-36.43,-10.41,3/4/2020
Santa Maria,60.71,88,0,2.98,-53.81,-29.68,3/4/2020
Iqaluit,6.44,77,90,3.36,-68.51,63.75,3/4/2020
Saint-Augustin,18.99,91,24,7.09,-58.65,51.23,3/4/2020
Los Llanos de Aridane,61.38,82,0,10.29,-17.92,28.66,3/4/2020
Williams Lake,32,74,75,5.82,-122.14,52.14,3/4/2020
Booué,74.01,95,70,1.79,11.94,-0.09,3/4/2020
Klaksvík,37.4,74,8,12.75,-6.59,62.23,3/4/2020
Okhotsk,11.55,85,97,1.97,143.3,59.38,3/4/2020
Acapulco de Juárez,78.8,83,5,4.7,-99.89,16.86,3/4/2020
Santa Cruz de La Palma,61.45,82,0,10.29,-17.76,28.68,3/4/2020
Itarema,75.81,93,100,2.42,-39.92,-2.92,3/4/2020
City of San Pedro,85.1,62,75,12.75,121.02,14.35,3/4/2020
Jackson,44.83,61,1,4.7,-122.83,42.42,3/4/2020
Waupun,33.51,74,1,5.82,-88.73,43.63,3/4/2020
Gemena,76.14,77,38,2.39,19.77,3.25,3/4/2020
Kudahuvadhoo,82.51,73,65,12.24,72.89,2.67,3/4/2020
Qingdao,47.07,39,40,11.18,120.37,36.1,3/4/2020
Westport,48.72,71,90,5.82,-73.36,41.14,3/4/2020
Piranshahr,32.59,73,0,11.63,45.14,36.7,3/4/2020
Sur,74.1,54,0,11.27,59.53,22.57,3/4/2020
Bondo,79.23,62,16,0.92,23.69,3.81,3/4/2020
Inhambane,78.8,61,40,6.93,35.38,-23.86,3/4/2020
Broome,37.89,93,90,12.75,-75.83,42.25,3/4/2020
Virginia Beach,58.62,77,40,13.87,-75.98,36.85,3/4/2020
Zhigansk,1.13,88,100,25.64,123.37,66.77,3/4/2020
Hīt,59.72,50,0,10.85,42.83,33.64,3/4/2020
Totness,77.79,82,53,16.13,-56.32,5.88,3/4/2020
Goulburn,65.03,94,100,3.44,149.72,-34.75,3/4/2020
Buraidah,51.8,53,0,4.7,43.98,26.33,3/4/2020
Bolshoy Lug,26.6,49,98,6.71,104.09,52.08,3/4/2020
Sola,84.02,80,68,13.13,167.55,-13.88,3/4/2020
Kem',13.19,96,11,3.42,34.58,64.96,3/4/2020
Vallenar,55.63,88,0,1.05,-70.76,-28.57,3/4/2020
Bilecik Province,44.6,65,69,9.17,30.17,40,3/4/2020
Taltal,58.93,85,12,4.52,-70.48,-25.4,3/4/2020
Nanortalik,15.24,66,0,13.31,-45.24,60.14,3/4/2020
Poykovskiy,26.6,63,50,15.66,73.33,61.23,3/4/2020
Dromolaxia,56.16,93,53,5.82,33.59,34.88,3/4/2020
Tateyama,52.5,81,75,10.29,139.87,34.98,3/4/2020
Poum,82.22,69,2,5.17,164.02,-20.23,3/4/2020
Cortez,32.23,50,1,7.9,-108.59,37.35,3/4/2020
Kavaratti,86,62,20,4.7,72.64,10.57,3/4/2020
Mehamn,27.19,68,4,20.8,27.85,71.04,3/4/2020
Chumikan,12.51,88,99,4.12,135.31,54.72,3/4/2020
The Valley,76.71,73,20,8.05,-63.06,18.22,3/4/2020
Inyonga,70.11,90,85,2.91,32.07,-6.72,3/4/2020
Mount Isa,82.4,78,75,13.87,139.5,-20.73,3/4/2020
Aragats,35.29,64,0,1.23,44.35,40.49,3/4/2020
São Miguel do Araguaia,71.6,98,61,1.39,-50.16,-13.28,3/4/2020
Huarmey,70.12,83,99,0.85,-78.15,-10.07,3/4/2020
Jilib,87.58,48,100,6.42,42.79,0.49,3/4/2020
Pilot Butte,27.73,92,20,5.82,-104.42,50.47,3/4/2020
Belmonte,77,83,40,4.7,-38.88,-15.86,3/4/2020
Puerto Colombia,78.8,83,67,11.41,-74.95,10.99,3/4/2020
Dwārka,73.94,77,0,9.8,68.97,22.24,3/4/2020
Xining,40.77,20,0,6.38,101.77,36.62,3/4/2020
Sibu,89.35,70,75,2.24,111.82,2.3,3/4/2020
Emerald,82.65,74,90,14.99,148.17,-23.53,3/4/2020
Takoradze,77.38,94,98,2.3,-1.76,4.88,3/4/2020
Avera,61.65,92,90,4.7,-82.53,33.19,3/4/2020
Srandakan,87.49,61,82,10.02,110.25,-7.94,3/4/2020
Bermejo,78.8,41,34,3.36,-68.8,-32.88,3/4/2020
Yerbogachën,16.02,89,50,8.08,108.01,61.28,3/4/2020
Esso,6.46,87,0,1.12,158.7,55.93,3/4/2020
Quatre Cocos,84.11,79,40,1.12,57.76,-20.21,3/4/2020
Gualeguay,69.57,50,0,3.24,-59.31,-33.14,3/4/2020
Pisco,71.35,78,100,9.17,-76.22,-13.7,3/4/2020
Charters Towers,87.33,61,95,12.88,146.27,-20.1,3/4/2020
Dawei,81.79,72,41,13.6,98.2,14.08,3/4/2020
Rocha,61.29,96,0,6.98,-54.33,-34.48,3/4/2020
Calderitas,78.51,80,0,13.2,-88.25,18.55,3/4/2020
Geraldton,95,23,0,16.11,114.6,-28.77,3/4/2020
Gamba,78.39,91,100,3.83,10,-2.65,3/4/2020
Saint Anthony,30.78,80,1,9.17,-93.22,45.02,3/4/2020
Paamiut,1.98,48,0,5.61,-49.67,61.99,3/4/2020
Kungurtug,29.8,78,100,0.98,97.52,50.6,3/4/2020
Carandaí,63.48,97,70,3.47,-43.81,-20.95,3/4/2020
Mokhsogollokh,10.44,86,65,6.8,128.92,61.47,3/4/2020
Kudus,87.8,70,20,13.87,110.84,-6.8,3/4/2020
Cham,33.55,83,75,4.5,8.46,47.18,3/4/2020
Bar Harbor,40.03,100,90,4.7,-68.2,44.39,3/4/2020
Schneverdingen,34.27,94,75,4.7,9.8,53.12,3/4/2020
Kinablangan,82.13,68,30,10.16,126.55,7.69,3/4/2020
Faya,60.75,77,0,11.41,42.45,18.39,3/4/2020
Tiarei,82.22,78,20,5.82,-149.33,-17.53,3/4/2020
Aranos,69.66,61,32,12.88,19.12,-24.13,3/4/2020
Coahuayana Viejo,68.38,67,0,3.96,-103.68,18.73,3/4/2020
Raudeberg,38.82,64,20,11.41,5.14,61.99,3/4/2020
Terrace,35.6,93,90,12.75,-128.6,54.52,3/4/2020
Kota Belud,87.8,74,20,6.93,116.43,6.35,3/4/2020
Tual,84.69,70,95,8.25,132.75,-5.67,3/4/2020
Māndal,82.33,21,13,2.44,74.57,25.45,3/4/2020
Wanning,78.49,69,19,8.37,110.4,18.8,3/4/2020
Helena,40.06,41,1,8.05,-112.04,46.59,3/4/2020
Almaşu Mare,44.82,89,89,1.32,23.13,46.1,3/4/2020
Clyde River,-18.4,82,20,12.75,-68.59,70.47,3/4/2020
Arrondissement d'Ajaccio,40.69,86,18,6.93,8.92,42,3/4/2020
Skjervøy,23,57,0,17.22,20.97,70.03,3/4/2020
Kharp,5.18,89,63,11.77,65.81,66.8,3/4/2020
Moose Factory,19.4,85,90,4.7,-80.61,51.26,3/4/2020
Beringovskiy,3.52,60,0,7.34,179.32,63.05,3/4/2020
Semirara,79.65,80,50,20.29,121.4,12.07,3/4/2020
Itaituba,73.15,99,100,1.45,-55.98,-4.28,3/4/2020
Taksimo,8.98,81,100,2.28,114.88,56.34,3/4/2020
Celestún,79.23,71,0,16.58,-90.4,20.87,3/4/2020
San Cristobal,80.6,69,40,2.24,-72.22,7.77,3/4/2020
Pajapan,73.45,63,0,7.92,-94.7,18.25,3/4/2020
Oxford,34,100,100,4.7,-1.26,51.75,3/4/2020
Tigil',10.83,90,6,1.07,158.67,57.8,3/4/2020
Nassau,48.97,76,90,9.17,-73.58,40.75,3/4/2020
Hailar,6.46,91,92,11.34,119.7,49.2,3/4/2020
Luwuk,79.56,85,100,1.79,122.79,-0.95,3/4/2020
Katsuura,51.69,87,75,10.29,140.3,35.13,3/4/2020
Saint-Pierre,82.2,88,75,10.29,55.48,-21.34,3/4/2020
Hambantota,84.2,79,75,2.24,81.12,6.12,3/4/2020
Rivadavia,78.8,41,0,3.36,-68.46,-33.19,3/4/2020
Kirksville,41.34,48,1,9.17,-92.58,40.19,3/4/2020
Bilibino,-4.65,64,0,1.45,166.44,68.05,3/4/2020
Logan,31.57,59,1,3.29,-111.83,41.74,3/4/2020
Venice,67.55,100,1,6.93,-82.45,27.1,3/4/2020
Iquique,69.8,68,29,3.36,-70.14,-20.22,3/4/2020
Natal,79.7,88,20,2.24,-35.21,-5.79,3/4/2020
Bantogon,82.58,66,36,7.81,124.03,6.53,3/4/2020
Shushenskoye,28.4,92,75,2.24,91.94,53.33,3/4/2020
Westerland,32.5,93,0,1.01,8.3,54.91,3/4/2020
Carlow,36.84,86,75,3.36,-6.93,52.84,3/4/2020
Devils Lake,18.39,92,1,3.36,-98.87,48.11,3/4/2020
Praia da Vitória,64.4,82,75,22.32,-27.07,38.73,3/4/2020
Huntington,45.9,45,1,6.93,-82.45,38.42,3/4/2020
Bilma,64.6,11,0,3.09,12.92,18.69,3/4/2020
Kalispell,42.64,52,90,10.29,-114.31,48.2,3/4/2020
Kota Kinabalu,87.8,74,20,6.93,116.07,5.97,3/4/2020
Tezu,78.96,27,78,5.12,96.17,27.92,3/4/2020
Novominskaya,49.28,62,98,8.05,38.96,46.32,3/4/2020
Dafeng,51.13,96,100,5.93,108.59,23.45,3/4/2020
Bukachacha,11.59,82,100,5.32,116.92,52.98,3/4/2020
Bentiu,85.86,8,11,6.78,29.83,9.23,3/4/2020
Kruisfontein,79.81,44,0,5.97,24.73,-34,3/4/2020
Kastamonu Province,43.36,65,69,3.56,33.67,41.5,3/4/2020
Guerrero Negro,59.5,82,0,10.92,-114.06,27.98,3/4/2020
Porto-Novo,82.4,88,20,8.05,2.6,6.5,3/4/2020
Portland,49.44,62,90,4.7,-122.68,45.52,3/4/2020
Isfana,46.4,75,20,6.71,69.53,39.84,3/4/2020
Iralaya,80.38,80,4,15.99,-83.23,15,3/4/2020
Riberalta,73.38,96,100,2.21,-66.1,-10.98,3/4/2020
Fatehpur,85.37,25,55,8.59,80.8,25.93,3/4/2020
Talnakh,15.8,85,75,11.18,88.4,69.49,3/4/2020
Mogwase,68.41,62,0,2.55,27.27,-25.18,3/4/2020
Henties Bay,69.01,84,74,1.72,14.28,-22.12,3/4/2020
Gillette,33.37,69,1,16.11,-105.5,44.29,3/4/2020
Chernyshevskiy,16.41,88,100,7.29,112.47,63.01,3/4/2020
Petrozavodsk,19.4,92,81,6.71,34.35,61.78,3/4/2020
Salalah,84.2,26,0,9.17,54.09,17.02,3/4/2020
Jumla,63,92,0,5.84,82.18,29.27,3/4/2020
Batagay-Alyta,-0.33,83,93,5.06,130.41,67.8,3/4/2020
Anadyr,5,77,0,13.42,177.48,64.75,3/4/2020
Atambua,81.1,80,100,5.41,124.89,-9.11,3/4/2020
Brae,38.95,86,97,8.05,-1.35,60.4,3/4/2020
Chengzhong,57.2,50,83,4.47,113.55,30.95,3/4/2020
Naze,64.4,88,75,5.82,129.48,28.37,3/4/2020
Mahbūbābād,90.82,34,37,11.52,80.02,17.62,3/4/2020
Hervey Bay,84.61,54,58,14.99,152.85,-25.3,3/4/2020
Lal'sk,19.31,92,100,6.98,47.59,60.74,3/4/2020
Mae Hong Son,89.6,38,20,5.82,97.97,19.3,3/4/2020
Ambulu,82.74,77,93,5.46,113.61,-8.35,3/4/2020
Bengkulu,82.54,82,100,6.26,102.27,-3.8,3/4/2020
Abalak,32.63,98,100,10.49,68.59,58.13,3/4/2020
Mogadishu,80.6,69,20,5.82,45.34,2.04,3/4/2020
Tramandaí,72.54,74,90,8.5,-50.13,-29.98,3/4/2020
Boende,76.98,78,91,3.36,20.87,-0.22,3/4/2020
Mayo,50.88,66,1,5.82,-76.51,38.89,3/4/2020
St. Pete Beach,68.18,88,1,5.68,-82.74,27.73,3/4/2020
Katherine,91.4,55,40,9.17,132.27,-14.47,3/4/2020
Itacoatiara,76.1,96,100,2.75,-58.44,-3.14,3/4/2020
Elko,32.52,88,1,5.35,-115.5,41,3/4/2020
Lorengau,83.84,78,97,22.55,147.27,-2.02,3/4/2020
Novyy Urgal,22.08,79,100,1.25,132.56,51.07,3/4/2020
Krasnovka,44.51,83,90,5.44,40.09,48.82,3/4/2020
Qazvin,39.2,75,1,4.7,50,36.28,3/4/2020
Imeni Babushkina,26.58,83,100,7.87,43.13,59.76,3/4/2020
San Vicente,62.37,83,0,2.39,-54.13,-26.62,3/4/2020
Maumere,82.63,78,100,3.56,122.21,-8.62,3/4/2020
Greenville,57.47,87,1,4.7,-77.37,35.61,3/4/2020
Tonota,60.8,100,20,6.93,27.48,-21.48,3/4/2020
Tianmen,58.39,55,100,6.04,113.16,30.65,3/4/2020
Boyuibe,64.09,60,21,2.75,-63.28,-20.42,3/4/2020
Voh,82.08,70,0,9.15,164.7,-20.97,3/4/2020
Tuatapere,57,50,14,8.99,167.68,-46.13,3/4/2020
Mozarlândia,72.16,96,23,1.86,-50.57,-14.74,3/4/2020
Fort Nelson,26.6,49,75,13.87,-122.7,58.81,3/4/2020
Korem,62.06,73,31,4.5,39.52,12.51,3/4/2020
Aripuanã,72.66,99,100,0.87,-60.63,-9.17,3/4/2020
Imbituba,68,100,100,5.82,-48.67,-28.24,3/4/2020
That Phanom,82.65,52,75,2.24,104.71,16.94,3/4/2020
La Ronge,24.8,85,90,10.29,-105.28,55.1,3/4/2020
Uusikaupunki,36.28,93,90,17.22,21.41,60.8,3/4/2020
São Gabriel da Cachoeira,73.45,97,100,1.21,-67.09,-0.13,3/4/2020
Show Low,33.42,38,1,5.82,-110.03,34.25,3/4/2020
Nakamura,49.93,88,100,7.02,132.93,32.98,3/4/2020
Sūsangerd,57.2,71,0,2.24,48.18,31.56,3/4/2020
Maniitsoq,5.65,49,0,3.11,-52.9,65.42,3/4/2020
Yulara,84.2,26,0,12.75,130.99,-25.24,3/4/2020
Maragogi,83.14,70,66,8.63,-35.22,-9.01,3/4/2020
Lázaro Cárdenas,70.59,86,0,2.75,-102.2,17.96,3/4/2020
Shitanjing,40.66,18,0,3.36,106.34,39.23,3/4/2020
Umluj,80.71,9,0,4.41,37.27,25.02,3/4/2020
Lethem,77.58,60,0,11.81,-59.8,3.38,3/4/2020
Vostok,26.53,93,100,2.8,135.88,46.49,3/4/2020
Maiquetia,73.36,88,40,4.05,-66.95,10.6,3/4/2020
Zalţan,58.89,39,45,22.82,11.87,32.95,3/4/2020
Haines Junction,-1.84,99,93,2.13,-137.51,60.75,3/4/2020
Kinel’-Cherkassy,30.79,98,99,6.2,51.47,53.47,3/4/2020
Tiruchchendur,87.8,62,20,4.7,78.12,8.48,3/4/2020
Opuwo,68.2,66,0,7.52,13.84,-18.06,3/4/2020
Olafsvik,29.66,72,28,11.97,-23.71,64.89,3/4/2020
Rabat,48.54,100,0,8.05,-6.84,33.99,3/4/2020
Talalayivka,43.47,92,100,8.97,31.92,50.96,3/4/2020
Fairbanks,-12.64,75,1,1.99,-147.72,64.84,3/4/2020
Kodarmā,84.92,31,0,7.34,85.6,24.47,3/4/2020
Mimongo,70.68,97,100,1.5,11.61,-1.62,3/4/2020
Jaciara,67.33,82,0,1.3,-54.97,-15.97,3/4/2020
Nieuw Amsterdam,73.24,94,24,2.24,-55.08,5.88,3/4/2020
Jagdalpur,88.48,30,10,10.09,82.03,19.07,3/4/2020
Pokhara,79,23,0,3.76,83.98,28.23,3/4/2020
Yarim,62.53,41,13,5.59,44.38,14.3,3/4/2020
Mago,19.27,77,83,1.99,140.18,53.25,3/4/2020
Uddevalla,37.11,93,90,3.36,11.94,58.35,3/4/2020
Arrondissement de Tulle,33.58,98,100,2.24,1.83,45.33,3/4/2020
Verkhnyaya Inta,13.69,91,100,27.72,60.31,65.98,3/4/2020
Alofi,80.6,83,36,2.24,-169.92,-19.06,3/4/2020
Skibbereen,37.4,100,75,11.41,-9.27,51.55,3/4/2020
Valparai,87.8,66,40,6.93,76.97,10.37,3/4/2020
São José da Coroa Grande,83.14,70,66,8.63,-35.15,-8.9,3/4/2020
Neustrelitz,32.52,90,0,8.12,13.08,53.37,3/4/2020
Barra de Tecoanapa,70.61,90,0,2.57,-98.75,16.52,3/4/2020
